{"type":"FeatureCollection","features":[{"type":"Feature","properties":{"CODE":6400,"NAME":"KOKSIJDE","STAT_ID":5,"ALT":9,"NETWORK":"SYNOP MeteoWing"},"geometry":{"type":"Point","coordinates":[2.654,51.089]}},{"type":"Feature","properties":{"CODE":6407,"NAME":"MIDDELKERKE","STAT_ID":2,"ALT":5,"NETWORK":"SYNOP Belgocontrol"},"geometry":{"type":"Point","coordinates":[2.853,51.199]}},{"type":"Feature","properties":{"CODE":6414,"NAME":"BEITEM","STAT_ID":663,"ALT":25,"NETWORK":"SYNOP RMI"},"geometry":{"type":"Point","coordinates":[3.123,50.905]}},{"type":"Feature","properties":{"CODE":6418,"NAME":"ZEEBRUGGE AWS","STAT_ID":774,"ALT":8,"NETWORK":"SYNOP RMI"},"geometry":{"type":"Point","coordinates":[3.196,51.349]}},{"type":"Feature","properties":{"CODE":6428,"NAME":"SEMMERZAKE","STAT_ID":486,"ALT":37,"NETWORK":"SYNOP MeteoWing"},"geometry":{"type":"Point","coordinates":[3.671,50.941]}},{"type":"Feature","properties":{"CODE":6431,"NAME":"ZELZATE AWS","STAT_ID":628,"ALT":8,"NETWORK":"SYNOP RMI"},"geometry":{"type":"Point","coordinates":[3.809,51.181]}},{"type":"Feature","properties":{"CODE":6432,"NAME":"CHIEVRES","STAT_ID":85,"ALT":63,"NETWORK":"SYNOP MeteoWing"},"geometry":{"type":"Point","coordinates":[3.833,50.573]}},{"type":"Feature","properties":{"CODE":6434,"NAME":"MELLE","STAT_ID":81,"ALT":15,"NETWORK":"SYNOP RMI"},"geometry":{"type":"Point","coordinates":[3.825,50.976]}},{"type":"Feature","properties":{"CODE":6438,"NAME":"STABROEK","STAT_ID":1225,"ALT":5,"NETWORK":"SYNOP RMI"},"geometry":{"type":"Point","coordinates":[4.365,51.326]}},{"type":"Feature","properties":{"CODE":6439,"NAME":"SINT-KATELIJNE-WAVER","STAT_ID":882,"ALT":10,"NETWORK":"SYNOP RMI"},"geometry":{"type":"Point","coordinates":[4.526,51.076]}},{"type":"Feature","properties":{"CODE":6447,"NAME":"UCCLE-UKKEL","STAT_ID":627,"ALT":101,"NETWORK":"SYNOP RMI"},"geometry":{"type":"Point","coordinates":[4.358,50.797]}},{"type":"Feature","properties":{"CODE":6449,"NAME":"GOSSELIES","STAT_ID":241,"ALT":192,"NETWORK":"SYNOP Belgocontrol"},"geometry":{"type":"Point","coordinates":[4.443,50.455]}},{"type":"Feature","properties":{"CODE":6450,"NAME":"DEURNE","STAT_ID":24,"ALT":14,"NETWORK":"SYNOP Belgocontrol"},"geometry":{"type":"Point","coordinates":[4.453,51.192]}},{"type":"Feature","properties":{"CODE":6451,"NAME":"ZAVENTEM/MELSBROEK","STAT_ID":171,"ALT":58,"NETWORK":"SYNOP Belgocontrol"},"geometry":{"type":"Point","coordinates":[4.528,50.897]}},{"type":"Feature","properties":{"CODE":6455,"NAME":"DOURBES","STAT_ID":639,"ALT":233,"NETWORK":"SYNOP RMI"},"geometry":{"type":"Point","coordinates":[4.596,50.096]}},{"type":"Feature","properties":{"CODE":6456,"NAME":"FLORENNES","STAT_ID":272,"ALT":299,"NETWORK":"SYNOP MeteoWing"},"geometry":{"type":"Point","coordinates":[4.654,50.235]}},{"type":"Feature","properties":{"CODE":6458,"NAME":"BEAUVECHAIN","STAT_ID":200,"ALT":127,"NETWORK":"SYNOP MeteoWing"},"geometry":{"type":"Point","coordinates":[4.765,50.747]}},{"type":"Feature","properties":{"CODE":6459,"NAME":"ERNAGE","STAT_ID":640,"ALT":157,"NETWORK":"SYNOP RMI"},"geometry":{"type":"Point","coordinates":[4.691,50.583]}},{"type":"Feature","properties":{"CODE":6464,"NAME":"RETIE","STAT_ID":623,"ALT":21,"NETWORK":"SYNOP RMI"},"geometry":{"type":"Point","coordinates":[5.028,51.222]}},{"type":"Feature","properties":{"CODE":6465,"NAME":"SCHAFFEN","STAT_ID":139,"ALT":54,"NETWORK":"SYNOP MeteoWing"},"geometry":{"type":"Point","coordinates":[5.063,50.998]}},{"type":"Feature","properties":{"CODE":6472,"NAME":"HUMAIN","STAT_ID":624,"ALT":296,"NETWORK":"SYNOP RMI"},"geometry":{"type":"Point","coordinates":[5.257,50.194]}},{"type":"Feature","properties":{"CODE":6476,"NAME":"SAINT-HUBERT","STAT_ID":414,"ALT":557,"NETWORK":"SYNOP Belgocontrol"},"geometry":{"type":"Point","coordinates":[5.405,50.04]}},{"type":"Feature","properties":{"CODE":6477,"NAME":"DIEPENBEEK","STAT_ID":660,"ALT":39,"NETWORK":"SYNOP RMI"},"geometry":{"type":"Point","coordinates":[5.451,50.916]}},{"type":"Feature","properties":{"CODE":6478,"NAME":"BIERSET","STAT_ID":495,"ALT":178,"NETWORK":"SYNOP Belgocontrol"},"geometry":{"type":"Point","coordinates":[5.46,50.646]}},{"type":"Feature","properties":{"CODE":6479,"NAME":"KLEINE-BROGEL","STAT_ID":141,"ALT":64,"NETWORK":"SYNOP MeteoWing"},"geometry":{"type":"Point","coordinates":[5.464,51.17]}},{"type":"Feature","properties":{"CODE":6484,"NAME":"BUZENOL","STAT_ID":653,"ALT":324,"NETWORK":"SYNOP RMI"},"geometry":{"type":"Point","coordinates":[5.589,49.621]}},{"type":"Feature","properties":{"CODE":6490,"NAME":"SPA (AERODROME)","STAT_ID":348,"ALT":482,"NETWORK":"SYNOP Belgocontrol"},"geometry":{"type":"Point","coordinates":[5.911,50.479]}},{"type":"Feature","properties":{"CODE":6494,"NAME":"MONT RIGI","STAT_ID":626,"ALT":673,"NETWORK":"SYNOP RMI"},"geometry":{"type":"Point","coordinates":[6.075,50.512]}},{"type":"Feature","properties":{"CODE":6496,"NAME":"ELSENBORN","STAT_ID":352,"ALT":570,"NETWORK":"SYNOP MeteoWing"},"geometry":{"type":"Point","coordinates":[6.182,50.483]}},{"type":"Feature","properties":{"CODE":102,"NAME":"KNOKKE-HEIST","STAT_ID":4,"ALT":4,"NETWORK":"CLIM RR"},"geometry":{"type":"Point","coordinates":[3.327,51.337]}},{"type":"Feature","properties":{"CODE":103,"NAME":"KOKSIJDE","STAT_ID":5,"ALT":9,"NETWORK":"CLIM RR"},"geometry":{"type":"Point","coordinates":[2.654,51.089]}},{"type":"Feature","properties":{"CODE":106,"NAME":"NIEUWPOORT","STAT_ID":506,"ALT":5,"NETWORK":"CLIM RR"},"geometry":{"type":"Point","coordinates":[2.759,51.134]}},{"type":"Feature","properties":{"CODE":107,"NAME":"VEURNE","STAT_ID":9,"ALT":6,"NETWORK":"CLIM RR"},"geometry":{"type":"Point","coordinates":[2.669,51.072]}},{"type":"Feature","properties":{"CODE":111,"NAME":"ZEEBRUGGE AWS","STAT_ID":774,"ALT":8,"NETWORK":"CLIM RR"},"geometry":{"type":"Point","coordinates":[3.196,51.349]}},{"type":"Feature","properties":{"CODE":200,"NAME":"OOSTKERKE","STAT_ID":1297,"ALT":5,"NETWORK":"CLIM RR"},"geometry":{"type":"Point","coordinates":[3.293,51.279]}},{"type":"Feature","properties":{"CODE":201,"NAME":"MIDDELKERKE","STAT_ID":2,"ALT":5,"NETWORK":"CLIM RR"},"geometry":{"type":"Point","coordinates":[2.853,51.199]}},{"type":"Feature","properties":{"CODE":202,"NAME":"HOUTAVE","STAT_ID":501,"ALT":3,"NETWORK":"CLIM RR"},"geometry":{"type":"Point","coordinates":[3.109,51.237]}},{"type":"Feature","properties":{"CODE":203,"NAME":"LISSEWEGE","STAT_ID":633,"ALT":4,"NETWORK":"CLIM RR"},"geometry":{"type":"Point","coordinates":[3.193,51.298]}},{"type":"Feature","properties":{"CODE":301,"NAME":"BASSEVELDE","STAT_ID":632,"ALT":5,"NETWORK":"CLIM RR"},"geometry":{"type":"Point","coordinates":[3.667,51.223]}},{"type":"Feature","properties":{"CODE":304,"NAME":"BEERST","STAT_ID":762,"ALT":3,"NETWORK":"CLIM RR"},"geometry":{"type":"Point","coordinates":[2.895,51.053]}},{"type":"Feature","properties":{"CODE":305,"NAME":"POLLINKHOVE","STAT_ID":21,"ALT":6,"NETWORK":"CLIM RR"},"geometry":{"type":"Point","coordinates":[2.737,50.958]}},{"type":"Feature","properties":{"CODE":306,"NAME":"MOERE","STAT_ID":15,"ALT":5,"NETWORK":"CLIM RR"},"geometry":{"type":"Point","coordinates":[2.967,51.122]}},{"type":"Feature","properties":{"CODE":309,"NAME":"WATERLAND-OUDEMAN","STAT_ID":1142,"ALT":1,"NETWORK":"CLIM RR"},"geometry":{"type":"Point","coordinates":[3.601,51.277]}},{"type":"Feature","properties":{"CODE":502,"NAME":"DEURNE","STAT_ID":24,"ALT":14,"NETWORK":"CLIM RR"},"geometry":{"type":"Point","coordinates":[4.453,51.192]}},{"type":"Feature","properties":{"CODE":504,"NAME":"STABROEK","STAT_ID":1225,"ALT":5,"NETWORK":"CLIM RR"},"geometry":{"type":"Point","coordinates":[4.365,51.326]}},{"type":"Feature","properties":{"CODE":505,"NAME":"NIEUWKERKEN","STAT_ID":1131,"ALT":17,"NETWORK":"CLIM RR"},"geometry":{"type":"Point","coordinates":[4.193,51.199]}},{"type":"Feature","properties":{"CODE":506,"NAME":"ANTWERPEN-HAVEN","STAT_ID":1115,"ALT":3,"NETWORK":"CLIM RR"},"geometry":{"type":"Point","coordinates":[4.378,51.291]}},{"type":"Feature","properties":{"CODE":508,"NAME":"DENDERMONDE","STAT_ID":35,"ALT":6,"NETWORK":"CLIM RR"},"geometry":{"type":"Point","coordinates":[4.085,51.044]}},{"type":"Feature","properties":{"CODE":604,"NAME":"ZELE","STAT_ID":29,"ALT":5,"NETWORK":"CLIM RR"},"geometry":{"type":"Point","coordinates":[4.043,51.057]}},{"type":"Feature","properties":{"CODE":606,"NAME":"DE KLINGE","STAT_ID":768,"ALT":5,"NETWORK":"CLIM RR"},"geometry":{"type":"Point","coordinates":[4.095,51.258]}},{"type":"Feature","properties":{"CODE":705,"NAME":"ROESELARE","STAT_ID":56,"ALT":18,"NETWORK":"CLIM RR"},"geometry":{"type":"Point","coordinates":[3.127,50.943]}},{"type":"Feature","properties":{"CODE":711,"NAME":"BEITEM AWS","STAT_ID":663,"ALT":25,"NETWORK":"CLIM RR"},"geometry":{"type":"Point","coordinates":[3.123,50.905]}},{"type":"Feature","properties":{"CODE":800,"NAME":"LEMBERGE","STAT_ID":61,"ALT":28,"NETWORK":"CLIM RR"},"geometry":{"type":"Point","coordinates":[3.779,50.983]}},{"type":"Feature","properties":{"CODE":802,"NAME":"KRUISHOUTEM","STAT_ID":63,"ALT":9,"NETWORK":"CLIM RR"},"geometry":{"type":"Point","coordinates":[3.527,50.944]}},{"type":"Feature","properties":{"CODE":804,"NAME":"WEVELGEM","STAT_ID":65,"ALT":19,"NETWORK":"CLIM RR"},"geometry":{"type":"Point","coordinates":[3.168,50.818]}},{"type":"Feature","properties":{"CODE":806,"NAME":"KLUIZEN","STAT_ID":68,"ALT":"NA","NETWORK":"CLIM RR"},"geometry":{"type":"Point","coordinates":[3.731,51.158]}},{"type":"Feature","properties":{"CODE":808,"NAME":"GENTBRUGGE","STAT_ID":69,"ALT":7,"NETWORK":"CLIM RR"},"geometry":{"type":"Point","coordinates":[3.748,51.047]}},{"type":"Feature","properties":{"CODE":902,"NAME":"SINT-BAAFS-VIJVE","STAT_ID":73,"ALT":8,"NETWORK":"CLIM RR"},"geometry":{"type":"Point","coordinates":[3.418,50.915]}},{"type":"Feature","properties":{"CODE":903,"NAME":"OOIGEM","STAT_ID":74,"ALT":12,"NETWORK":"CLIM RR"},"geometry":{"type":"Point","coordinates":[3.346,50.899]}},{"type":"Feature","properties":{"CODE":904,"NAME":"KORTRIJK","STAT_ID":75,"ALT":11,"NETWORK":"CLIM RR"},"geometry":{"type":"Point","coordinates":[3.272,50.836]}},{"type":"Feature","properties":{"CODE":908,"NAME":"BOEZINGE","STAT_ID":78,"ALT":17,"NETWORK":"CLIM RR"},"geometry":{"type":"Point","coordinates":[2.865,50.897]}},{"type":"Feature","properties":{"CODE":909,"NAME":"WINGENE","STAT_ID":79,"ALT":16,"NETWORK":"CLIM RR"},"geometry":{"type":"Point","coordinates":[3.338,51.079]}},{"type":"Feature","properties":{"CODE":910,"NAME":"MEIGEM","STAT_ID":80,"ALT":17,"NETWORK":"CLIM RR"},"geometry":{"type":"Point","coordinates":[3.476,51.016]}},{"type":"Feature","properties":{"CODE":911,"NAME":"MENEN-OOST","STAT_ID":1132,"ALT":15,"NETWORK":"CLIM RR"},"geometry":{"type":"Point","coordinates":[3.149,50.814]}},{"type":"Feature","properties":{"CODE":1002,"NAME":"SEMMERZAKE","STAT_ID":486,"ALT":37,"NETWORK":"CLIM RR"},"geometry":{"type":"Point","coordinates":[3.671,50.941]}},{"type":"Feature","properties":{"CODE":1003,"NAME":"LICHTERVELDE","STAT_ID":58,"ALT":25,"NETWORK":"CLIM RR"},"geometry":{"type":"Point","coordinates":[3.119,51.025]}},{"type":"Feature","properties":{"CODE":1004,"NAME":"POPERINGE","STAT_ID":60,"ALT":12,"NETWORK":"CLIM RR"},"geometry":{"type":"Point","coordinates":[2.741,50.862]}},{"type":"Feature","properties":{"CODE":1006,"NAME":"ZOMERGEM","STAT_ID":59,"ALT":13,"NETWORK":"CLIM RR"},"geometry":{"type":"Point","coordinates":[3.564,51.11]}},{"type":"Feature","properties":{"CODE":1007,"NAME":"ASSEBROEK","STAT_ID":447,"ALT":5,"NETWORK":"CLIM RR"},"geometry":{"type":"Point","coordinates":[3.27,51.199]}},{"type":"Feature","properties":{"CODE":1009,"NAME":"ZELZATE AWS","STAT_ID":628,"ALT":8,"NETWORK":"CLIM RR"},"geometry":{"type":"Point","coordinates":[3.809,51.181]}},{"type":"Feature","properties":{"CODE":1011,"NAME":"WINGENE","STAT_ID":654,"ALT":19,"NETWORK":"CLIM RR"},"geometry":{"type":"Point","coordinates":[3.33,51.065]}},{"type":"Feature","properties":{"CODE":1013,"NAME":"INGELMUNSTER","STAT_ID":778,"ALT":20,"NETWORK":"CLIM RR"},"geometry":{"type":"Point","coordinates":[3.285,50.913]}},{"type":"Feature","properties":{"CODE":1014,"NAME":"HOOGLEDE","STAT_ID":887,"ALT":49,"NETWORK":"CLIM RR"},"geometry":{"type":"Point","coordinates":[3.073,50.98]}},{"type":"Feature","properties":{"CODE":1017,"NAME":"HOUTHULST","STAT_ID":913,"ALT":18,"NETWORK":"CLIM RR"},"geometry":{"type":"Point","coordinates":[2.912,50.969]}},{"type":"Feature","properties":{"CODE":1019,"NAME":"PASSENDALE","STAT_ID":1358,"ALT":40,"NETWORK":"CLIM RR"},"geometry":{"type":"Point","coordinates":[3.03,50.903]}},{"type":"Feature","properties":{"CODE":1021,"NAME":"URSEL","STAT_ID":1226,"ALT":8,"NETWORK":"CLIM RR"},"geometry":{"type":"Point","coordinates":[3.501,51.135]}},{"type":"Feature","properties":{"CODE":1022,"NAME":"LAARNE","STAT_ID":1296,"ALT":5,"NETWORK":"CLIM RR"},"geometry":{"type":"Point","coordinates":[3.834,51.035]}},{"type":"Feature","properties":{"CODE":1023,"NAME":"OOST-VLETEREN","STAT_ID":1362,"ALT":10,"NETWORK":"CLIM RR"},"geometry":{"type":"Point","coordinates":[2.762,50.922]}},{"type":"Feature","properties":{"CODE":1024,"NAME":"WEST-VLETEREN","STAT_ID":1360,"ALT":15,"NETWORK":"CLIM RR"},"geometry":{"type":"Point","coordinates":[2.74,50.886]}},{"type":"Feature","properties":{"CODE":1081,"NAME":"MELLE AWS","STAT_ID":81,"ALT":15,"NETWORK":"CLIM RR"},"geometry":{"type":"Point","coordinates":[3.825,50.976]}},{"type":"Feature","properties":{"CODE":1202,"NAME":"SINT-MARIA-LATEM","STAT_ID":446,"ALT":35,"NETWORK":"CLIM RR"},"geometry":{"type":"Point","coordinates":[3.706,50.889]}},{"type":"Feature","properties":{"CODE":1205,"NAME":"BRUSSEGEM","STAT_ID":39,"ALT":53,"NETWORK":"CLIM RR"},"geometry":{"type":"Point","coordinates":[4.248,50.922]}},{"type":"Feature","properties":{"CODE":1210,"NAME":"ASSSE-TER-HEIDE","STAT_ID":484,"ALT":50,"NETWORK":"CLIM RR"},"geometry":{"type":"Point","coordinates":[4.156,50.925]}},{"type":"Feature","properties":{"CODE":1211,"NAME":"HELDERGEM","STAT_ID":658,"ALT":74,"NETWORK":"CLIM RR"},"geometry":{"type":"Point","coordinates":[3.964,50.874]}},{"type":"Feature","properties":{"CODE":1212,"NAME":"LEDE","STAT_ID":659,"ALT":10,"NETWORK":"CLIM RR"},"geometry":{"type":"Point","coordinates":[3.993,50.974]}},{"type":"Feature","properties":{"CODE":1213,"NAME":"WORTEGEM","STAT_ID":881,"ALT":43,"NETWORK":"CLIM RR"},"geometry":{"type":"Point","coordinates":[3.523,50.861]}},{"type":"Feature","properties":{"CODE":1214,"NAME":"ZULZEKE","STAT_ID":880,"ALT":28,"NETWORK":"CLIM RR"},"geometry":{"type":"Point","coordinates":[3.573,50.788]}},{"type":"Feature","properties":{"CODE":1401,"NAME":"ASPER","STAT_ID":45,"ALT":7,"NETWORK":"CLIM RR"},"geometry":{"type":"Point","coordinates":[3.666,50.918]}},{"type":"Feature","properties":{"CODE":1600,"NAME":"CHIEVRES","STAT_ID":85,"ALT":63,"NETWORK":"CLIM RR"},"geometry":{"type":"Point","coordinates":[3.833,50.573]}},{"type":"Feature","properties":{"CODE":1707,"NAME":"NECHIN","STAT_ID":88,"ALT":22,"NETWORK":"CLIM RR"},"geometry":{"type":"Point","coordinates":[3.272,50.674]}},{"type":"Feature","properties":{"CODE":1708,"NAME":"TOURNAI","STAT_ID":92,"ALT":27,"NETWORK":"CLIM RR"},"geometry":{"type":"Point","coordinates":[3.378,50.611]}},{"type":"Feature","properties":{"CODE":1709,"NAME":"HERINNES","STAT_ID":93,"ALT":16,"NETWORK":"CLIM RR"},"geometry":{"type":"Point","coordinates":[3.369,50.706]}},{"type":"Feature","properties":{"CODE":1710,"NAME":"VEZON","STAT_ID":610,"ALT":70,"NETWORK":"CLIM RR"},"geometry":{"type":"Point","coordinates":[3.524,50.57]}},{"type":"Feature","properties":{"CODE":1711,"NAME":"ESCANAFFLES","STAT_ID":652,"ALT":20,"NETWORK":"CLIM RR"},"geometry":{"type":"Point","coordinates":[3.462,50.723]}},{"type":"Feature","properties":{"CODE":1712,"NAME":"VAUDIGNIES","STAT_ID":791,"ALT":25,"NETWORK":"CLIM RR"},"geometry":{"type":"Point","coordinates":[3.794,50.556]}},{"type":"Feature","properties":{"CODE":1714,"NAME":"THIMOUGIES","STAT_ID":1134,"ALT":76,"NETWORK":"CLIM RR"},"geometry":{"type":"Point","coordinates":[3.511,50.633]}},{"type":"Feature","properties":{"CODE":1802,"NAME":"MOUSCRON","STAT_ID":94,"ALT":58,"NETWORK":"CLIM RR"},"geometry":{"type":"Point","coordinates":[3.237,50.751]}},{"type":"Feature","properties":{"CODE":1901,"NAME":"HEULTJE","STAT_ID":114,"ALT":17,"NETWORK":"CLIM RR"},"geometry":{"type":"Point","coordinates":[4.913,51.083]}},{"type":"Feature","properties":{"CODE":1905,"NAME":"WESTMALLE","STAT_ID":609,"ALT":25,"NETWORK":"CLIM RR"},"geometry":{"type":"Point","coordinates":[4.659,51.284]}},{"type":"Feature","properties":{"CODE":1909,"NAME":"ESSEN","STAT_ID":476,"ALT":14,"NETWORK":"CLIM RR"},"geometry":{"type":"Point","coordinates":[4.452,51.463]}},{"type":"Feature","properties":{"CODE":1911,"NAME":"RETIE AWS","STAT_ID":623,"ALT":21,"NETWORK":"CLIM RR"},"geometry":{"type":"Point","coordinates":[5.028,51.222]}},{"type":"Feature","properties":{"CODE":1913,"NAME":"POPPEL","STAT_ID":766,"ALT":30,"NETWORK":"CLIM RR"},"geometry":{"type":"Point","coordinates":[5.082,51.431]}},{"type":"Feature","properties":{"CODE":1951,"NAME":"BALEN","STAT_ID":1187,"ALT":35,"NETWORK":"CLIM RR"},"geometry":{"type":"Point","coordinates":[5.21,51.169]}},{"type":"Feature","properties":{"CODE":2006,"NAME":"BRASSCHAAT","STAT_ID":116,"ALT":17,"NETWORK":"CLIM RR"},"geometry":{"type":"Point","coordinates":[4.538,51.318]}},{"type":"Feature","properties":{"CODE":2009,"NAME":"BRECHT","STAT_ID":112,"ALT":25,"NETWORK":"CLIM RR"},"geometry":{"type":"Point","coordinates":[4.649,51.388]}},{"type":"Feature","properties":{"CODE":2010,"NAME":"BEGIJNENDIJK","STAT_ID":507,"ALT":15,"NETWORK":"CLIM RR"},"geometry":{"type":"Point","coordinates":[4.784,51.023]}},{"type":"Feature","properties":{"CODE":2012,"NAME":"BLAUBERG","STAT_ID":631,"ALT":20,"NETWORK":"CLIM RR"},"geometry":{"type":"Point","coordinates":[4.924,51.041]}},{"type":"Feature","properties":{"CODE":2015,"NAME":"OEVEL","STAT_ID":886,"ALT":23,"NETWORK":"CLIM RR"},"geometry":{"type":"Point","coordinates":[4.905,51.134]}},{"type":"Feature","properties":{"CODE":2017,"NAME":"SINT-KATELIJNE-WAVER(AWS)","STAT_ID":882,"ALT":10,"NETWORK":"CLIM RR"},"geometry":{"type":"Point","coordinates":[4.526,51.076]}},{"type":"Feature","properties":{"CODE":2018,"NAME":"VORSELAAR","STAT_ID":1164,"ALT":12,"NETWORK":"CLIM RR"},"geometry":{"type":"Point","coordinates":[4.773,51.229]}},{"type":"Feature","properties":{"CODE":2019,"NAME":"HERENTHOUT","STAT_ID":1165,"ALT":12,"NETWORK":"CLIM RR"},"geometry":{"type":"Point","coordinates":[4.768,51.131]}},{"type":"Feature","properties":{"CODE":2101,"NAME":"DESSEL","STAT_ID":1163,"ALT":25,"NETWORK":"CLIM RR"},"geometry":{"type":"Point","coordinates":[5.122,51.235]}},{"type":"Feature","properties":{"CODE":2108,"NAME":"RIJKEVORSEL","STAT_ID":477,"ALT":26,"NETWORK":"CLIM RR"},"geometry":{"type":"Point","coordinates":[4.775,51.329]}},{"type":"Feature","properties":{"CODE":2109,"NAME":"HAACHT","STAT_ID":608,"ALT":10,"NETWORK":"CLIM RR"},"geometry":{"type":"Point","coordinates":[4.633,50.971]}},{"type":"Feature","properties":{"CODE":2300,"NAME":"VIERSEL","STAT_ID":129,"ALT":6,"NETWORK":"CLIM RR"},"geometry":{"type":"Point","coordinates":[4.653,51.188]}},{"type":"Feature","properties":{"CODE":2304,"NAME":"WIJNEGEM","STAT_ID":132,"ALT":10,"NETWORK":"CLIM RR"},"geometry":{"type":"Point","coordinates":[4.54,51.228]}},{"type":"Feature","properties":{"CODE":2400,"NAME":"KOERSEL","STAT_ID":135,"ALT":39,"NETWORK":"CLIM RR"},"geometry":{"type":"Point","coordinates":[5.28,51.07]}},{"type":"Feature","properties":{"CODE":2403,"NAME":"MEEUWEN","STAT_ID":140,"ALT":71,"NETWORK":"CLIM RR"},"geometry":{"type":"Point","coordinates":[5.52,51.106]}},{"type":"Feature","properties":{"CODE":2404,"NAME":"KLEINE-BROGEL","STAT_ID":141,"ALT":64,"NETWORK":"CLIM RR"},"geometry":{"type":"Point","coordinates":[5.464,51.17]}},{"type":"Feature","properties":{"CODE":2407,"NAME":"MAASMECHELEN","STAT_ID":147,"ALT":42,"NETWORK":"CLIM RR"},"geometry":{"type":"Point","coordinates":[5.712,50.959]}},{"type":"Feature","properties":{"CODE":2409,"NAME":"LANAKEN","STAT_ID":149,"ALT":58,"NETWORK":"CLIM RR"},"geometry":{"type":"Point","coordinates":[5.657,50.886]}},{"type":"Feature","properties":{"CODE":2413,"NAME":"HECHTEL-EKSEL","STAT_ID":1159,"ALT":63,"NETWORK":"CLIM RR"},"geometry":{"type":"Point","coordinates":[5.372,51.123]}},{"type":"Feature","properties":{"CODE":2500,"NAME":"OPHOVEN","STAT_ID":146,"ALT":35,"NETWORK":"CLIM RR"},"geometry":{"type":"Point","coordinates":[5.799,51.134]}},{"type":"Feature","properties":{"CODE":2501,"NAME":"SCHAFFEN","STAT_ID":139,"ALT":54,"NETWORK":"CLIM RR"},"geometry":{"type":"Point","coordinates":[5.063,50.998]}},{"type":"Feature","properties":{"CODE":2508,"NAME":"KURINGEN","STAT_ID":645,"ALT":20,"NETWORK":"CLIM RR"},"geometry":{"type":"Point","coordinates":[5.272,50.949]}},{"type":"Feature","properties":{"CODE":2509,"NAME":"DIEPENBEEK AWS","STAT_ID":660,"ALT":39,"NETWORK":"CLIM RR"},"geometry":{"type":"Point","coordinates":[5.451,50.916]}},{"type":"Feature","properties":{"CODE":2511,"NAME":"HOUTHALEN","STAT_ID":1168,"ALT":75,"NETWORK":"CLIM RR"},"geometry":{"type":"Point","coordinates":[5.4,51.026]}},{"type":"Feature","properties":{"CODE":2512,"NAME":"ZONHOVEN","STAT_ID":1169,"ALT":45,"NETWORK":"CLIM RR"},"geometry":{"type":"Point","coordinates":[5.376,50.985]}},{"type":"Feature","properties":{"CODE":2600,"NAME":"LOZEN","STAT_ID":150,"ALT":36,"NETWORK":"CLIM RR"},"geometry":{"type":"Point","coordinates":[5.558,51.206]}},{"type":"Feature","properties":{"CODE":2602,"NAME":"LOMMEL","STAT_ID":152,"ALT":44,"NETWORK":"CLIM RR"},"geometry":{"type":"Point","coordinates":[5.36,51.241]}},{"type":"Feature","properties":{"CODE":2604,"NAME":"OOSTHAM","STAT_ID":1130,"ALT":35,"NETWORK":"CLIM RR"},"geometry":{"type":"Point","coordinates":[5.177,51.116]}},{"type":"Feature","properties":{"CODE":2605,"NAME":"MOLENSTEDE","STAT_ID":155,"ALT":18,"NETWORK":"CLIM RR"},"geometry":{"type":"Point","coordinates":[5.031,51.007]}},{"type":"Feature","properties":{"CODE":2710,"NAME":"DILBEEK","STAT_ID":651,"ALT":50,"NETWORK":"CLIM RR"},"geometry":{"type":"Point","coordinates":[4.251,50.864]}},{"type":"Feature","properties":{"CODE":2803,"NAME":"SOIGNIES","STAT_ID":158,"ALT":98,"NETWORK":"CLIM RR"},"geometry":{"type":"Point","coordinates":[4.087,50.586]}},{"type":"Feature","properties":{"CODE":2805,"NAME":"KAPELLE-OP-DEN-BOS","STAT_ID":883,"ALT":9,"NETWORK":"CLIM RR"},"geometry":{"type":"Point","coordinates":[4.356,51.002]}},{"type":"Feature","properties":{"CODE":2806,"NAME":"HERNE","STAT_ID":1114,"ALT":43,"NETWORK":"CLIM RR"},"geometry":{"type":"Point","coordinates":[4.004,50.729]}},{"type":"Feature","properties":{"CODE":2808,"NAME":"Elingen","STAT_ID":1234,"ALT":50,"NETWORK":"CLIM RR"},"geometry":{"type":"Point","coordinates":[4.021,50.787]}},{"type":"Feature","properties":{"CODE":2900,"NAME":"UCCLE-UKKEL (FERME)","STAT_ID":169,"ALT":100,"NETWORK":"CLIM RR"},"geometry":{"type":"Point","coordinates":[4.359,50.797]}},{"type":"Feature","properties":{"CODE":2905,"NAME":"ZAVENTEM","STAT_ID":171,"ALT":58,"NETWORK":"CLIM RR"},"geometry":{"type":"Point","coordinates":[4.528,50.897]}},{"type":"Feature","properties":{"CODE":2907,"NAME":"BRAINE-L'ALLEUD","STAT_ID":172,"ALT":96,"NETWORK":"CLIM RR"},"geometry":{"type":"Point","coordinates":[4.373,50.699]}},{"type":"Feature","properties":{"CODE":2910,"NAME":"UCCLE-UKKEL AWS","STAT_ID":627,"ALT":101,"NETWORK":"CLIM RR"},"geometry":{"type":"Point","coordinates":[4.358,50.797]}},{"type":"Feature","properties":{"CODE":2911,"NAME":"UCCLE-UKKEL (ANCIEN FERME)","STAT_ID":771,"ALT":100,"NETWORK":"CLIM RR"},"geometry":{"type":"Point","coordinates":[4.357,50.797]}},{"type":"Feature","properties":{"CODE":2913,"NAME":"UCCLE-UKKEL (OUVERT)","STAT_ID":166,"ALT":100,"NETWORK":"CLIM RR"},"geometry":{"type":"Point","coordinates":[4.357,50.797]}},{"type":"Feature","properties":{"CODE":3005,"NAME":"KORBEEK-LO","STAT_ID":479,"ALT":31,"NETWORK":"CLIM RR"},"geometry":{"type":"Point","coordinates":[4.746,50.864]}},{"type":"Feature","properties":{"CODE":3007,"NAME":"UCCLE RESERVOIR","STAT_ID":180,"ALT":96,"NETWORK":"CLIM RR"},"geometry":{"type":"Point","coordinates":[4.393,50.792]}},{"type":"Feature","properties":{"CODE":3100,"NAME":"ERNAGE AWS","STAT_ID":640,"ALT":157,"NETWORK":"CLIM RR"},"geometry":{"type":"Point","coordinates":[4.691,50.583]}},{"type":"Feature","properties":{"CODE":3205,"NAME":"MARBAIS","STAT_ID":480,"ALT":145,"NETWORK":"CLIM RR"},"geometry":{"type":"Point","coordinates":[4.538,50.543]}},{"type":"Feature","properties":{"CODE":3207,"NAME":"MAZY","STAT_ID":187,"ALT":138,"NETWORK":"CLIM RR"},"geometry":{"type":"Point","coordinates":[4.695,50.507]}},{"type":"Feature","properties":{"CODE":3303,"NAME":"BLANMONT","STAT_ID":192,"ALT":125,"NETWORK":"CLIM RR"},"geometry":{"type":"Point","coordinates":[4.646,50.62]}},{"type":"Feature","properties":{"CODE":3309,"NAME":"HERENT","STAT_ID":193,"ALT":32,"NETWORK":"CLIM RR"},"geometry":{"type":"Point","coordinates":[4.663,50.904]}},{"type":"Feature","properties":{"CODE":3311,"NAME":"UCCLE VIVAQUA","STAT_ID":470,"ALT":100,"NETWORK":"CLIM RR"},"geometry":{"type":"Point","coordinates":[4.366,50.782]}},{"type":"Feature","properties":{"CODE":3313,"NAME":"SINT-PIETERS-RODE","STAT_ID":606,"ALT":60,"NETWORK":"CLIM RR"},"geometry":{"type":"Point","coordinates":[4.811,50.905]}},{"type":"Feature","properties":{"CODE":3315,"NAME":"LEEFDAAL","STAT_ID":620,"ALT":80,"NETWORK":"CLIM RR"},"geometry":{"type":"Point","coordinates":[4.594,50.843]}},{"type":"Feature","properties":{"CODE":3317,"NAME":"NETHEN","STAT_ID":636,"ALT":47,"NETWORK":"CLIM RR"},"geometry":{"type":"Point","coordinates":[4.685,50.781]}},{"type":"Feature","properties":{"CODE":3318,"NAME":"BORNIVAL","STAT_ID":647,"ALT":127,"NETWORK":"CLIM RR"},"geometry":{"type":"Point","coordinates":[4.271,50.604]}},{"type":"Feature","properties":{"CODE":3320,"NAME":"BUIZINGEN","STAT_ID":895,"ALT":85,"NETWORK":"CLIM RR"},"geometry":{"type":"Point","coordinates":[4.278,50.725]}},{"type":"Feature","properties":{"CODE":3321,"NAME":"WEZEMAAL","STAT_ID":894,"ALT":17,"NETWORK":"CLIM RR"},"geometry":{"type":"Point","coordinates":[4.748,50.956]}},{"type":"Feature","properties":{"CODE":3400,"NAME":"EZEMAAL","STAT_ID":481,"ALT":47,"NETWORK":"CLIM RR"},"geometry":{"type":"Point","coordinates":[5.001,50.771]}},{"type":"Feature","properties":{"CODE":3401,"NAME":"BEAUVECHAIN","STAT_ID":200,"ALT":127,"NETWORK":"CLIM RR"},"geometry":{"type":"Point","coordinates":[4.765,50.747]}},{"type":"Feature","properties":{"CODE":3406,"NAME":"GORSEM","STAT_ID":205,"ALT":84,"NETWORK":"CLIM RR"},"geometry":{"type":"Point","coordinates":[5.161,50.772]}},{"type":"Feature","properties":{"CODE":3409,"NAME":"RUTTEN","STAT_ID":494,"ALT":110,"NETWORK":"CLIM RR"},"geometry":{"type":"Point","coordinates":[5.438,50.749]}},{"type":"Feature","properties":{"CODE":3509,"NAME":"RANSBERG","STAT_ID":219,"ALT":60,"NETWORK":"CLIM RR"},"geometry":{"type":"Point","coordinates":[5.034,50.864]}},{"type":"Feature","properties":{"CODE":3510,"NAME":"BILZEN","STAT_ID":220,"ALT":63,"NETWORK":"CLIM RR"},"geometry":{"type":"Point","coordinates":[5.508,50.867]}},{"type":"Feature","properties":{"CODE":3511,"NAME":"VEDRIN","STAT_ID":449,"ALT":170,"NETWORK":"CLIM RR"},"geometry":{"type":"Point","coordinates":[4.862,50.5]}},{"type":"Feature","properties":{"CODE":3512,"NAME":"LANDENNE","STAT_ID":450,"ALT":218,"NETWORK":"CLIM RR"},"geometry":{"type":"Point","coordinates":[5.054,50.52]}},{"type":"Feature","properties":{"CODE":3513,"NAME":"HOUTEM","STAT_ID":607,"ALT":100,"NETWORK":"CLIM RR"},"geometry":{"type":"Point","coordinates":[4.874,50.789]}},{"type":"Feature","properties":{"CODE":3514,"NAME":"ENGELMANSHOVEN","STAT_ID":890,"ALT":95,"NETWORK":"CLIM RR"},"geometry":{"type":"Point","coordinates":[5.25,50.768]}},{"type":"Feature","properties":{"CODE":3515,"NAME":"MARILLES","STAT_ID":1363,"ALT":95,"NETWORK":"CLIM RR"},"geometry":{"type":"Point","coordinates":[4.944,50.706]}},{"type":"Feature","properties":{"CODE":3601,"NAME":"BIERSET","STAT_ID":495,"ALT":178,"NETWORK":"CLIM RR"},"geometry":{"type":"Point","coordinates":[5.46,50.646]}},{"type":"Feature","properties":{"CODE":3610,"NAME":"DAUSSOULX","STAT_ID":602,"ALT":180,"NETWORK":"CLIM RR"},"geometry":{"type":"Point","coordinates":[4.872,50.515]}},{"type":"Feature","properties":{"CODE":3703,"NAME":"BEN-AHIN","STAT_ID":229,"ALT":78,"NETWORK":"CLIM RR"},"geometry":{"type":"Point","coordinates":[5.184,50.516]}},{"type":"Feature","properties":{"CODE":3704,"NAME":"ANGLEUR","STAT_ID":475,"ALT":65,"NETWORK":"CLIM RR"},"geometry":{"type":"Point","coordinates":[5.583,50.62]}},{"type":"Feature","properties":{"CODE":3708,"NAME":"LIEGE-MONSIN","STAT_ID":235,"ALT":58,"NETWORK":"CLIM RR"},"geometry":{"type":"Point","coordinates":[5.641,50.666]}},{"type":"Feature","properties":{"CODE":3900,"NAME":"IVOZ-RAMET","STAT_ID":236,"ALT":62,"NETWORK":"CLIM RR"},"geometry":{"type":"Point","coordinates":[5.461,50.592]}},{"type":"Feature","properties":{"CODE":3904,"NAME":"ANDENNE","STAT_ID":238,"ALT":100,"NETWORK":"CLIM RR"},"geometry":{"type":"Point","coordinates":[5.069,50.49]}},{"type":"Feature","properties":{"CODE":3906,"NAME":"AWIRS","STAT_ID":1333,"ALT":"NA","NETWORK":"CLIM RR"},"geometry":{"type":"Point","coordinates":[5.411,50.597]}},{"type":"Feature","properties":{"CODE":3908,"NAME":"TIHANGE","STAT_ID":231,"ALT":74,"NETWORK":"CLIM RR"},"geometry":{"type":"Point","coordinates":[5.296,50.533]}},{"type":"Feature","properties":{"CODE":3909,"NAME":"GRANDS-MALADES","STAT_ID":240,"ALT":75,"NETWORK":"CLIM RR"},"geometry":{"type":"Point","coordinates":[4.897,50.467]}},{"type":"Feature","properties":{"CODE":4203,"NAME":"GODARVILLE","STAT_ID":258,"ALT":138,"NETWORK":"CLIM RR"},"geometry":{"type":"Point","coordinates":[4.293,50.498]}},{"type":"Feature","properties":{"CODE":4204,"NAME":"GOSSELIES","STAT_ID":241,"ALT":192,"NETWORK":"CLIM RR"},"geometry":{"type":"Point","coordinates":[4.443,50.455]}},{"type":"Feature","properties":{"CODE":4205,"NAME":"LA HESTRE","STAT_ID":248,"ALT":173,"NETWORK":"CLIM RR"},"geometry":{"type":"Point","coordinates":[4.248,50.477]}},{"type":"Feature","properties":{"CODE":4206,"NAME":"QUEVY-LE-PETIT","STAT_ID":242,"ALT":102,"NETWORK":"CLIM RR"},"geometry":{"type":"Point","coordinates":[3.954,50.367]}},{"type":"Feature","properties":{"CODE":4213,"NAME":"EUGIES","STAT_ID":642,"ALT":128,"NETWORK":"CLIM RR"},"geometry":{"type":"Point","coordinates":[3.893,50.392]}},{"type":"Feature","properties":{"CODE":4214,"NAME":"BOUGNIES","STAT_ID":641,"ALT":82,"NETWORK":"CLIM RR"},"geometry":{"type":"Point","coordinates":[3.939,50.386]}},{"type":"Feature","properties":{"CODE":4215,"NAME":"LEVAL-TRAHEGNIES","STAT_ID":648,"ALT":196,"NETWORK":"CLIM RR"},"geometry":{"type":"Point","coordinates":[4.238,50.4]}},{"type":"Feature","properties":{"CODE":4216,"NAME":"BERNISSART","STAT_ID":1112,"ALT":28,"NETWORK":"CLIM RR"},"geometry":{"type":"Point","coordinates":[3.658,50.488]}},{"type":"Feature","properties":{"CODE":4403,"NAME":"AUVELAIS","STAT_ID":263,"ALT":58,"NETWORK":"CLIM RR"},"geometry":{"type":"Point","coordinates":[4.629,50.455]}},{"type":"Feature","properties":{"CODE":4405,"NAME":"THUIN","STAT_ID":264,"ALT":158,"NETWORK":"CLIM RR"},"geometry":{"type":"Point","coordinates":[4.295,50.344]}},{"type":"Feature","properties":{"CODE":4406,"NAME":"SOLRE-SUR-SAMBRE","STAT_ID":265,"ALT":136,"NETWORK":"CLIM RR"},"geometry":{"type":"Point","coordinates":[4.152,50.31]}},{"type":"Feature","properties":{"CODE":4500,"NAME":"BOUSSU-LEZ-WALCOURT","STAT_ID":286,"ALT":243,"NETWORK":"CLIM RR"},"geometry":{"type":"Point","coordinates":[4.384,50.227]}},{"type":"Feature","properties":{"CODE":4603,"NAME":"FLORENNES","STAT_ID":272,"ALT":299,"NETWORK":"CLIM RR"},"geometry":{"type":"Point","coordinates":[4.654,50.235]}},{"type":"Feature","properties":{"CODE":4605,"NAME":"SIVRY","STAT_ID":281,"ALT":256,"NETWORK":"CLIM RR"},"geometry":{"type":"Point","coordinates":[4.23,50.178]}},{"type":"Feature","properties":{"CODE":4616,"NAME":"SOSOYE","STAT_ID":1202,"ALT":174,"NETWORK":"CLIM RR"},"geometry":{"type":"Point","coordinates":[4.781,50.294]}},{"type":"Feature","properties":{"CODE":4702,"NAME":"RANCE","STAT_ID":294,"ALT":188,"NETWORK":"CLIM RR"},"geometry":{"type":"Point","coordinates":[4.293,50.136]}},{"type":"Feature","properties":{"CODE":4704,"NAME":"DOURBES AWS","STAT_ID":639,"ALT":233,"NETWORK":"CLIM RR"},"geometry":{"type":"Point","coordinates":[4.596,50.096]}},{"type":"Feature","properties":{"CODE":4710,"NAME":"PRESLES","STAT_ID":656,"ALT":185,"NETWORK":"CLIM RR"},"geometry":{"type":"Point","coordinates":[4.568,50.386]}},{"type":"Feature","properties":{"CODE":4711,"NAME":"BIOUL","STAT_ID":1328,"ALT":215,"NETWORK":"CLIM RR"},"geometry":{"type":"Point","coordinates":[4.791,50.338]}},{"type":"Feature","properties":{"CODE":4803,"NAME":"DINANT","STAT_ID":299,"ALT":96,"NETWORK":"CLIM RR"},"geometry":{"type":"Point","coordinates":[4.907,50.266]}},{"type":"Feature","properties":{"CODE":4804,"NAME":"RIVIERE","STAT_ID":300,"ALT":88,"NETWORK":"CLIM RR"},"geometry":{"type":"Point","coordinates":[4.876,50.359]}},{"type":"Feature","properties":{"CODE":4805,"NAME":"LA PLANTE","STAT_ID":301,"ALT":82,"NETWORK":"CLIM RR"},"geometry":{"type":"Point","coordinates":[4.862,50.451]}},{"type":"Feature","properties":{"CODE":4806,"NAME":"HASTIERE","STAT_ID":302,"ALT":99,"NETWORK":"CLIM RR"},"geometry":{"type":"Point","coordinates":[4.821,50.2]}},{"type":"Feature","properties":{"CODE":4807,"NAME":"MORNIMONT","STAT_ID":303,"ALT":110,"NETWORK":"CLIM RR"},"geometry":{"type":"Point","coordinates":[4.708,50.445]}},{"type":"Feature","properties":{"CODE":5001,"NAME":"SPONTIN","STAT_ID":306,"ALT":200,"NETWORK":"CLIM RR"},"geometry":{"type":"Point","coordinates":[5.004,50.317]}},{"type":"Feature","properties":{"CODE":5002,"NAME":"CRUPET","STAT_ID":482,"ALT":196,"NETWORK":"CLIM RR"},"geometry":{"type":"Point","coordinates":[4.964,50.356]}},{"type":"Feature","properties":{"CODE":5003,"NAME":"MODAVE VIVAQUA","STAT_ID":308,"ALT":170,"NETWORK":"CLIM RR"},"geometry":{"type":"Point","coordinates":[5.287,50.45]}},{"type":"Feature","properties":{"CODE":5101,"NAME":"MODAVE","STAT_ID":320,"ALT":220,"NETWORK":"CLIM RR"},"geometry":{"type":"Point","coordinates":[5.297,50.447]}},{"type":"Feature","properties":{"CODE":5102,"NAME":"HAVELANGE","STAT_ID":321,"ALT":302,"NETWORK":"CLIM RR"},"geometry":{"type":"Point","coordinates":[5.249,50.387]}},{"type":"Feature","properties":{"CODE":5109,"NAME":"STREE","STAT_ID":466,"ALT":250,"NETWORK":"CLIM RR"},"geometry":{"type":"Point","coordinates":[5.316,50.509]}},{"type":"Feature","properties":{"CODE":5202,"NAME":"LOUVEIGNE","STAT_ID":311,"ALT":302,"NETWORK":"CLIM RR"},"geometry":{"type":"Point","coordinates":[5.701,50.518]}},{"type":"Feature","properties":{"CODE":5207,"NAME":"SOREE","STAT_ID":464,"ALT":270,"NETWORK":"CLIM RR"},"geometry":{"type":"Point","coordinates":[5.124,50.399]}},{"type":"Feature","properties":{"CODE":5208,"NAME":"SART-BERNARD","STAT_ID":503,"ALT":260,"NETWORK":"CLIM RR"},"geometry":{"type":"Point","coordinates":[4.954,50.399]}},{"type":"Feature","properties":{"CODE":5211,"NAME":"HUMAIN AWS","STAT_ID":624,"ALT":296,"NETWORK":"CLIM RR"},"geometry":{"type":"Point","coordinates":[5.257,50.194]}},{"type":"Feature","properties":{"CODE":5213,"NAME":"BONCELLES","STAT_ID":1298,"ALT":264,"NETWORK":"CLIM RR"},"geometry":{"type":"Point","coordinates":[5.536,50.567]}},{"type":"Feature","properties":{"CODE":5300,"NAME":"ROCHEFORT","STAT_ID":326,"ALT":193,"NETWORK":"CLIM RR"},"geometry":{"type":"Point","coordinates":[5.224,50.176]}},{"type":"Feature","properties":{"CODE":5305,"NAME":"HOUYET","STAT_ID":332,"ALT":118,"NETWORK":"CLIM RR"},"geometry":{"type":"Point","coordinates":[5.008,50.191]}},{"type":"Feature","properties":{"CODE":5403,"NAME":"WALHORN","STAT_ID":337,"ALT":220,"NETWORK":"CLIM RR"},"geometry":{"type":"Point","coordinates":[6.035,50.698]}},{"type":"Feature","properties":{"CODE":5501,"NAME":"S GRAVENVOEREN","STAT_ID":341,"ALT":110,"NETWORK":"CLIM RR"},"geometry":{"type":"Point","coordinates":[5.748,50.75]}},{"type":"Feature","properties":{"CODE":5502,"NAME":"STEMBERT","STAT_ID":456,"ALT":290,"NETWORK":"CLIM RR"},"geometry":{"type":"Point","coordinates":[5.905,50.596]}},{"type":"Feature","properties":{"CODE":5602,"NAME":"SPA-LA SAUVENIERE","STAT_ID":348,"ALT":482,"NETWORK":"CLIM RR"},"geometry":{"type":"Point","coordinates":[5.911,50.479]}},{"type":"Feature","properties":{"CODE":5603,"NAME":"STAVELOT","STAT_ID":349,"ALT":320,"NETWORK":"CLIM RR"},"geometry":{"type":"Point","coordinates":[5.936,50.398]}},{"type":"Feature","properties":{"CODE":5605,"NAME":"ELSENBORN","STAT_ID":352,"ALT":570,"NETWORK":"CLIM RR"},"geometry":{"type":"Point","coordinates":[6.182,50.483]}},{"type":"Feature","properties":{"CODE":5609,"NAME":"ROBERTVILLE","STAT_ID":357,"ALT":526,"NETWORK":"CLIM RR"},"geometry":{"type":"Point","coordinates":[6.108,50.452]}},{"type":"Feature","properties":{"CODE":5619,"NAME":"SOURBRODT","STAT_ID":664,"ALT":575,"NETWORK":"CLIM RR"},"geometry":{"type":"Point","coordinates":[6.126,50.476]}},{"type":"Feature","properties":{"CODE":5620,"NAME":"ELSENBORN","STAT_ID":1329,"ALT":616,"NETWORK":"CLIM RR"},"geometry":{"type":"Point","coordinates":[6.214,50.454]}},{"type":"Feature","properties":{"CODE":5701,"NAME":"MONT RIGI AWS","STAT_ID":626,"ALT":673,"NETWORK":"CLIM RR"},"geometry":{"type":"Point","coordinates":[6.075,50.512]}},{"type":"Feature","properties":{"CODE":5702,"NAME":"HESTREUX","STAT_ID":360,"ALT":448,"NETWORK":"CLIM RR"},"geometry":{"type":"Point","coordinates":[6.036,50.571]}},{"type":"Feature","properties":{"CODE":5703,"NAME":"HOCKAI","STAT_ID":361,"ALT":574,"NETWORK":"CLIM RR"},"geometry":{"type":"Point","coordinates":[5.989,50.484]}},{"type":"Feature","properties":{"CODE":5809,"NAME":"GEROMONT","STAT_ID":376,"ALT":440,"NETWORK":"CLIM RR"},"geometry":{"type":"Point","coordinates":[6.055,50.41]}},{"type":"Feature","properties":{"CODE":5810,"NAME":"MURRINGEN","STAT_ID":379,"ALT":658,"NETWORK":"CLIM RR"},"geometry":{"type":"Point","coordinates":[6.31,50.408]}},{"type":"Feature","properties":{"CODE":5811,"NAME":"NEIDINGEN","STAT_ID":458,"ALT":420,"NETWORK":"CLIM RR"},"geometry":{"type":"Point","coordinates":[6.148,50.252]}},{"type":"Feature","properties":{"CODE":6100,"NAME":"HIVES","STAT_ID":389,"ALT":398,"NETWORK":"CLIM RR"},"geometry":{"type":"Point","coordinates":[5.583,50.152]}},{"type":"Feature","properties":{"CODE":6103,"NAME":"GOUVY","STAT_ID":392,"ALT":458,"NETWORK":"CLIM RR"},"geometry":{"type":"Point","coordinates":[5.954,50.191]}},{"type":"Feature","properties":{"CODE":6104,"NAME":"RACHAMPS","STAT_ID":393,"ALT":434,"NETWORK":"CLIM RR"},"geometry":{"type":"Point","coordinates":[5.789,50.084]}},{"type":"Feature","properties":{"CODE":6200,"NAME":"NADRIN","STAT_ID":394,"ALT":405,"NETWORK":"CLIM RR"},"geometry":{"type":"Point","coordinates":[5.681,50.159]}},{"type":"Feature","properties":{"CODE":6210,"NAME":"GIVRY","STAT_ID":502,"ALT":400,"NETWORK":"CLIM RR"},"geometry":{"type":"Point","coordinates":[5.642,50.061]}},{"type":"Feature","properties":{"CODE":6211,"NAME":"CHEOUX","STAT_ID":189,"ALT":270,"NETWORK":"CLIM RR"},"geometry":{"type":"Point","coordinates":[5.468,50.216]}},{"type":"Feature","properties":{"CODE":6214,"NAME":"MOMIGNIES","STAT_ID":619,"ALT":255,"NETWORK":"CLIM RR"},"geometry":{"type":"Point","coordinates":[4.16,50.021]}},{"type":"Feature","properties":{"CODE":6300,"NAME":"FORGES","STAT_ID":497,"ALT":318,"NETWORK":"CLIM RR"},"geometry":{"type":"Point","coordinates":[4.34,49.982]}},{"type":"Feature","properties":{"CODE":6302,"NAME":"BIEVRE","STAT_ID":410,"ALT":376,"NETWORK":"CLIM RR"},"geometry":{"type":"Point","coordinates":[5.012,49.94]}},{"type":"Feature","properties":{"CODE":6508,"NAME":"PRESGAUX","STAT_ID":465,"ALT":314,"NETWORK":"CLIM RR"},"geometry":{"type":"Point","coordinates":[4.426,50.019]}},{"type":"Feature","properties":{"CODE":6510,"NAME":"MASSUL","STAT_ID":601,"ALT":470,"NETWORK":"CLIM RR"},"geometry":{"type":"Point","coordinates":[5.504,49.878]}},{"type":"Feature","properties":{"CODE":6600,"NAME":"SUGNY","STAT_ID":384,"ALT":375,"NETWORK":"CLIM RR"},"geometry":{"type":"Point","coordinates":[4.9,49.816]}},{"type":"Feature","properties":{"CODE":6601,"NAME":"WITRY","STAT_ID":385,"ALT":470,"NETWORK":"CLIM RR"},"geometry":{"type":"Point","coordinates":[5.613,49.858]}},{"type":"Feature","properties":{"CODE":6701,"NAME":"LACUISINE","STAT_ID":431,"ALT":298,"NETWORK":"CLIM RR"},"geometry":{"type":"Point","coordinates":[5.324,49.712]}},{"type":"Feature","properties":{"CODE":6802,"NAME":"AUBANGE","STAT_ID":441,"ALT":298,"NETWORK":"CLIM RR"},"geometry":{"type":"Point","coordinates":[5.8,49.572]}},{"type":"Feature","properties":{"CODE":6807,"NAME":"BUZENOL AWS","STAT_ID":653,"ALT":324,"NETWORK":"CLIM RR"},"geometry":{"type":"Point","coordinates":[5.589,49.621]}},{"type":"Feature","properties":{"CODE":6811,"NAME":"FRASSEM","STAT_ID":459,"ALT":388,"NETWORK":"CLIM RR"},"geometry":{"type":"Point","coordinates":[5.826,49.701]}},{"type":"Feature","properties":{"CODE":6812,"NAME":"MEIX-DEVANT-VIRTON","STAT_ID":460,"ALT":252,"NETWORK":"CLIM RR"},"geometry":{"type":"Point","coordinates":[5.48,49.606]}},{"type":"Feature","properties":{"CODE":6813,"NAME":"ATTERT","STAT_ID":1332,"ALT":360,"NETWORK":"CLIM RR"},"geometry":{"type":"Point","coordinates":[5.762,49.763]}},{"type":"Feature","properties":{"CODE":6815,"NAME":"ROSSIGNOL","STAT_ID":629,"ALT":360,"NETWORK":"CLIM RR"},"geometry":{"type":"Point","coordinates":[5.488,49.724]}},{"type":"Feature","properties":{"CODE":6816,"NAME":"CHENOIS","STAT_ID":1147,"ALT":226,"NETWORK":"CLIM RR"},"geometry":{"type":"Point","coordinates":[5.548,49.562]}},{"type":"Feature","properties":{"CODE":101,"NAME":"KNOKKE-HEIST","STAT_ID":4,"ALT":4,"NETWORK":"CLIM TT"},"geometry":{"type":"Point","coordinates":[3.327,51.337]}},{"type":"Feature","properties":{"CODE":102,"NAME":"KOKSIJDE","STAT_ID":5,"ALT":9,"NETWORK":"CLIM TT"},"geometry":{"type":"Point","coordinates":[2.654,51.089]}},{"type":"Feature","properties":{"CODE":103,"NAME":"MIDDELKERKE","STAT_ID":2,"ALT":5,"NETWORK":"CLIM TT"},"geometry":{"type":"Point","coordinates":[2.853,51.199]}},{"type":"Feature","properties":{"CODE":106,"NAME":"ZEEBRUGGE AWS","STAT_ID":774,"ALT":8,"NETWORK":"CLIM TT"},"geometry":{"type":"Point","coordinates":[3.196,51.349]}},{"type":"Feature","properties":{"CODE":199,"NAME":"ZELE","STAT_ID":29,"ALT":5,"NETWORK":"CLIM TT"},"geometry":{"type":"Point","coordinates":[4.043,51.057]}},{"type":"Feature","properties":{"CODE":200,"NAME":"DEURNE","STAT_ID":24,"ALT":14,"NETWORK":"CLIM TT"},"geometry":{"type":"Point","coordinates":[4.453,51.192]}},{"type":"Feature","properties":{"CODE":204,"NAME":"Stabroek","STAT_ID":1225,"ALT":5,"NETWORK":"CLIM TT"},"geometry":{"type":"Point","coordinates":[4.365,51.326]}},{"type":"Feature","properties":{"CODE":207,"NAME":"MOERE","STAT_ID":15,"ALT":5,"NETWORK":"CLIM TT"},"geometry":{"type":"Point","coordinates":[2.967,51.122]}},{"type":"Feature","properties":{"CODE":208,"NAME":"POLLINKHOVE","STAT_ID":21,"ALT":6,"NETWORK":"CLIM TT"},"geometry":{"type":"Point","coordinates":[2.737,50.958]}},{"type":"Feature","properties":{"CODE":209,"NAME":"BEERST","STAT_ID":762,"ALT":3,"NETWORK":"CLIM TT"},"geometry":{"type":"Point","coordinates":[2.895,51.053]}},{"type":"Feature","properties":{"CODE":210,"NAME":"BASSEVELDE","STAT_ID":632,"ALT":5,"NETWORK":"CLIM TT"},"geometry":{"type":"Point","coordinates":[3.667,51.223]}},{"type":"Feature","properties":{"CODE":212,"NAME":"DE KLINGE","STAT_ID":768,"ALT":5,"NETWORK":"CLIM TT"},"geometry":{"type":"Point","coordinates":[4.095,51.258]}},{"type":"Feature","properties":{"CODE":214,"NAME":"WATERLAND-OUDEMAN","STAT_ID":1142,"ALT":1,"NETWORK":"CLIM TT"},"geometry":{"type":"Point","coordinates":[3.601,51.277]}},{"type":"Feature","properties":{"CODE":304,"NAME":"ROESELARE","STAT_ID":56,"ALT":18,"NETWORK":"CLIM TT"},"geometry":{"type":"Point","coordinates":[3.127,50.943]}},{"type":"Feature","properties":{"CODE":306,"NAME":"LEMBERGE","STAT_ID":61,"ALT":28,"NETWORK":"CLIM TT"},"geometry":{"type":"Point","coordinates":[3.779,50.983]}},{"type":"Feature","properties":{"CODE":307,"NAME":"POPERINGE","STAT_ID":60,"ALT":12,"NETWORK":"CLIM TT"},"geometry":{"type":"Point","coordinates":[2.741,50.862]}},{"type":"Feature","properties":{"CODE":309,"NAME":"Wevelgem","STAT_ID":65,"ALT":19,"NETWORK":"CLIM TT"},"geometry":{"type":"Point","coordinates":[3.168,50.818]}},{"type":"Feature","properties":{"CODE":310,"NAME":"LICHTERVELDE","STAT_ID":58,"ALT":25,"NETWORK":"CLIM TT"},"geometry":{"type":"Point","coordinates":[3.119,51.025]}},{"type":"Feature","properties":{"CODE":311,"NAME":"ZOMERGEM","STAT_ID":59,"ALT":13,"NETWORK":"CLIM TT"},"geometry":{"type":"Point","coordinates":[3.564,51.11]}},{"type":"Feature","properties":{"CODE":312,"NAME":"ASSEBROEK","STAT_ID":447,"ALT":5,"NETWORK":"CLIM TT"},"geometry":{"type":"Point","coordinates":[3.27,51.199]}},{"type":"Feature","properties":{"CODE":315,"NAME":"ZELZATE AWS","STAT_ID":628,"ALT":8,"NETWORK":"CLIM TT"},"geometry":{"type":"Point","coordinates":[3.809,51.181]}},{"type":"Feature","properties":{"CODE":317,"NAME":"BEITEM AWS","STAT_ID":663,"ALT":25,"NETWORK":"CLIM TT"},"geometry":{"type":"Point","coordinates":[3.123,50.905]}},{"type":"Feature","properties":{"CODE":318,"NAME":"KEMMEL","STAT_ID":761,"ALT":12,"NETWORK":"CLIM TT"},"geometry":{"type":"Point","coordinates":[2.625,50.914]}},{"type":"Feature","properties":{"CODE":319,"NAME":"KLUIZEN","STAT_ID":68,"ALT":"NA","NETWORK":"CLIM TT"},"geometry":{"type":"Point","coordinates":[3.731,51.158]}},{"type":"Feature","properties":{"CODE":321,"NAME":"GENT STERRE","STAT_ID":773,"ALT":15,"NETWORK":"CLIM TT"},"geometry":{"type":"Point","coordinates":[3.711,51.023]}},{"type":"Feature","properties":{"CODE":325,"NAME":"PASSENDALE","STAT_ID":1358,"ALT":40,"NETWORK":"CLIM TT"},"geometry":{"type":"Point","coordinates":[3.03,50.903]}},{"type":"Feature","properties":{"CODE":326,"NAME":"WINGENE","STAT_ID":654,"ALT":19,"NETWORK":"CLIM TT"},"geometry":{"type":"Point","coordinates":[3.33,51.065]}},{"type":"Feature","properties":{"CODE":327,"NAME":"URSEL","STAT_ID":1226,"ALT":8,"NETWORK":"CLIM TT"},"geometry":{"type":"Point","coordinates":[3.501,51.135]}},{"type":"Feature","properties":{"CODE":328,"NAME":"LAARNE","STAT_ID":1296,"ALT":5,"NETWORK":"CLIM TT"},"geometry":{"type":"Point","coordinates":[3.834,51.035]}},{"type":"Feature","properties":{"CODE":400,"NAME":"KRUISHOUTEM","STAT_ID":63,"ALT":9,"NETWORK":"CLIM TT"},"geometry":{"type":"Point","coordinates":[3.527,50.944]}},{"type":"Feature","properties":{"CODE":403,"NAME":"WINGENE","STAT_ID":79,"ALT":16,"NETWORK":"CLIM TT"},"geometry":{"type":"Point","coordinates":[3.338,51.079]}},{"type":"Feature","properties":{"CODE":404,"NAME":"SEMMERZAKE","STAT_ID":486,"ALT":37,"NETWORK":"CLIM TT"},"geometry":{"type":"Point","coordinates":[3.671,50.941]}},{"type":"Feature","properties":{"CODE":406,"NAME":"SINT-MARIA-LATEM","STAT_ID":446,"ALT":35,"NETWORK":"CLIM TT"},"geometry":{"type":"Point","coordinates":[3.706,50.889]}},{"type":"Feature","properties":{"CODE":408,"NAME":"BRUSSEGEM","STAT_ID":39,"ALT":53,"NETWORK":"CLIM TT"},"geometry":{"type":"Point","coordinates":[4.248,50.922]}},{"type":"Feature","properties":{"CODE":410,"NAME":"MEIGEM","STAT_ID":80,"ALT":17,"NETWORK":"CLIM TT"},"geometry":{"type":"Point","coordinates":[3.476,51.016]}},{"type":"Feature","properties":{"CODE":411,"NAME":"ASSE-TER-HEIDE","STAT_ID":484,"ALT":50,"NETWORK":"CLIM TT"},"geometry":{"type":"Point","coordinates":[4.156,50.925]}},{"type":"Feature","properties":{"CODE":412,"NAME":"HELDERGEM","STAT_ID":658,"ALT":74,"NETWORK":"CLIM TT"},"geometry":{"type":"Point","coordinates":[3.964,50.874]}},{"type":"Feature","properties":{"CODE":414,"NAME":"WORTEGEM","STAT_ID":881,"ALT":43,"NETWORK":"CLIM TT"},"geometry":{"type":"Point","coordinates":[3.523,50.861]}},{"type":"Feature","properties":{"CODE":415,"NAME":"ZULZEKE","STAT_ID":880,"ALT":28,"NETWORK":"CLIM TT"},"geometry":{"type":"Point","coordinates":[3.573,50.788]}},{"type":"Feature","properties":{"CODE":481,"NAME":"MELLE AWS","STAT_ID":81,"ALT":15,"NETWORK":"CLIM TT"},"geometry":{"type":"Point","coordinates":[3.825,50.976]}},{"type":"Feature","properties":{"CODE":505,"NAME":"CHIEVRES","STAT_ID":85,"ALT":63,"NETWORK":"CLIM TT"},"geometry":{"type":"Point","coordinates":[3.833,50.573]}},{"type":"Feature","properties":{"CODE":508,"NAME":"NECHIN","STAT_ID":88,"ALT":22,"NETWORK":"CLIM TT"},"geometry":{"type":"Point","coordinates":[3.272,50.674]}},{"type":"Feature","properties":{"CODE":509,"NAME":"TOURNAI","STAT_ID":92,"ALT":27,"NETWORK":"CLIM TT"},"geometry":{"type":"Point","coordinates":[3.378,50.611]}},{"type":"Feature","properties":{"CODE":511,"NAME":"HERINNES","STAT_ID":93,"ALT":16,"NETWORK":"CLIM TT"},"geometry":{"type":"Point","coordinates":[3.369,50.706]}},{"type":"Feature","properties":{"CODE":512,"NAME":"MOUSCRON","STAT_ID":94,"ALT":58,"NETWORK":"CLIM TT"},"geometry":{"type":"Point","coordinates":[3.237,50.751]}},{"type":"Feature","properties":{"CODE":516,"NAME":"VEZON","STAT_ID":610,"ALT":70,"NETWORK":"CLIM TT"},"geometry":{"type":"Point","coordinates":[3.524,50.57]}},{"type":"Feature","properties":{"CODE":517,"NAME":"VAUDIGNIES","STAT_ID":791,"ALT":25,"NETWORK":"CLIM TT"},"geometry":{"type":"Point","coordinates":[3.794,50.556]}},{"type":"Feature","properties":{"CODE":603,"NAME":"GOSSELIES","STAT_ID":241,"ALT":192,"NETWORK":"CLIM TT"},"geometry":{"type":"Point","coordinates":[4.443,50.455]}},{"type":"Feature","properties":{"CODE":607,"NAME":"LA HESTRE","STAT_ID":248,"ALT":173,"NETWORK":"CLIM TT"},"geometry":{"type":"Point","coordinates":[4.248,50.477]}},{"type":"Feature","properties":{"CODE":609,"NAME":"QUEVY-LE-PETIT","STAT_ID":242,"ALT":102,"NETWORK":"CLIM TT"},"geometry":{"type":"Point","coordinates":[3.954,50.367]}},{"type":"Feature","properties":{"CODE":616,"NAME":"BOUGNIES","STAT_ID":641,"ALT":82,"NETWORK":"CLIM TT"},"geometry":{"type":"Point","coordinates":[3.939,50.386]}},{"type":"Feature","properties":{"CODE":702,"NAME":"BRECHT","STAT_ID":112,"ALT":25,"NETWORK":"CLIM TT"},"geometry":{"type":"Point","coordinates":[4.649,51.388]}},{"type":"Feature","properties":{"CODE":705,"NAME":"ESSEN","STAT_ID":476,"ALT":14,"NETWORK":"CLIM TT"},"geometry":{"type":"Point","coordinates":[4.452,51.463]}},{"type":"Feature","properties":{"CODE":710,"NAME":"BRASSCHAAT","STAT_ID":116,"ALT":17,"NETWORK":"CLIM TT"},"geometry":{"type":"Point","coordinates":[4.538,51.318]}},{"type":"Feature","properties":{"CODE":713,"NAME":"BEGIJNENDIJK","STAT_ID":507,"ALT":15,"NETWORK":"CLIM TT"},"geometry":{"type":"Point","coordinates":[4.784,51.023]}},{"type":"Feature","properties":{"CODE":714,"NAME":"WESTMALLE","STAT_ID":609,"ALT":25,"NETWORK":"CLIM TT"},"geometry":{"type":"Point","coordinates":[4.659,51.284]}},{"type":"Feature","properties":{"CODE":715,"NAME":"BLAUBERG","STAT_ID":631,"ALT":20,"NETWORK":"CLIM TT"},"geometry":{"type":"Point","coordinates":[4.924,51.041]}},{"type":"Feature","properties":{"CODE":718,"NAME":"LIER","STAT_ID":650,"ALT":8,"NETWORK":"CLIM TT"},"geometry":{"type":"Point","coordinates":[4.566,51.146]}},{"type":"Feature","properties":{"CODE":719,"NAME":"RETIE AWS","STAT_ID":623,"ALT":21,"NETWORK":"CLIM TT"},"geometry":{"type":"Point","coordinates":[5.028,51.222]}},{"type":"Feature","properties":{"CODE":721,"NAME":"POPPEL","STAT_ID":766,"ALT":30,"NETWORK":"CLIM TT"},"geometry":{"type":"Point","coordinates":[5.082,51.431]}},{"type":"Feature","properties":{"CODE":725,"NAME":"SINT-KATELIJNE-WAVER","STAT_ID":882,"ALT":10,"NETWORK":"CLIM TT"},"geometry":{"type":"Point","coordinates":[4.526,51.076]}},{"type":"Feature","properties":{"CODE":726,"NAME":"DESSEL","STAT_ID":1163,"ALT":25,"NETWORK":"CLIM TT"},"geometry":{"type":"Point","coordinates":[5.122,51.235]}},{"type":"Feature","properties":{"CODE":800,"NAME":"KOERSEL","STAT_ID":135,"ALT":39,"NETWORK":"CLIM TT"},"geometry":{"type":"Point","coordinates":[5.28,51.07]}},{"type":"Feature","properties":{"CODE":803,"NAME":"KLEINE-BROGEL","STAT_ID":141,"ALT":64,"NETWORK":"CLIM TT"},"geometry":{"type":"Point","coordinates":[5.464,51.17]}},{"type":"Feature","properties":{"CODE":804,"NAME":"SCHAFFEN","STAT_ID":139,"ALT":54,"NETWORK":"CLIM TT"},"geometry":{"type":"Point","coordinates":[5.063,50.998]}},{"type":"Feature","properties":{"CODE":806,"NAME":"MEEUWEN","STAT_ID":140,"ALT":71,"NETWORK":"CLIM TT"},"geometry":{"type":"Point","coordinates":[5.52,51.106]}},{"type":"Feature","properties":{"CODE":809,"NAME":"OPHOVEN","STAT_ID":146,"ALT":35,"NETWORK":"CLIM TT"},"geometry":{"type":"Point","coordinates":[5.799,51.134]}},{"type":"Feature","properties":{"CODE":812,"NAME":"KURINGEN","STAT_ID":645,"ALT":20,"NETWORK":"CLIM TT"},"geometry":{"type":"Point","coordinates":[5.272,50.949]}},{"type":"Feature","properties":{"CODE":814,"NAME":"DIEPENBEEEK AWS","STAT_ID":660,"ALT":39,"NETWORK":"CLIM TT"},"geometry":{"type":"Point","coordinates":[5.451,50.916]}},{"type":"Feature","properties":{"CODE":818,"NAME":"HECHTEL-EKSEL","STAT_ID":1159,"ALT":63,"NETWORK":"CLIM TT"},"geometry":{"type":"Point","coordinates":[5.372,51.123]}},{"type":"Feature","properties":{"CODE":904,"NAME":"UCCLE-UKKEL (FERME)","STAT_ID":169,"ALT":100,"NETWORK":"CLIM TT"},"geometry":{"type":"Point","coordinates":[4.359,50.797]}},{"type":"Feature","properties":{"CODE":905,"NAME":"UCCLE-UKKEL (OUVERT)","STAT_ID":166,"ALT":100,"NETWORK":"CLIM TT"},"geometry":{"type":"Point","coordinates":[4.357,50.797]}},{"type":"Feature","properties":{"CODE":907,"NAME":"ZAVENTEM","STAT_ID":171,"ALT":58,"NETWORK":"CLIM TT"},"geometry":{"type":"Point","coordinates":[4.528,50.897]}},{"type":"Feature","properties":{"CODE":909,"NAME":"BRAINE-L'ALLEUD","STAT_ID":172,"ALT":96,"NETWORK":"CLIM TT"},"geometry":{"type":"Point","coordinates":[4.373,50.699]}},{"type":"Feature","properties":{"CODE":915,"NAME":"DILBEEK","STAT_ID":651,"ALT":50,"NETWORK":"CLIM TT"},"geometry":{"type":"Point","coordinates":[4.251,50.864]}},{"type":"Feature","properties":{"CODE":916,"NAME":"KAPELLE-OP-DEN-BOS","STAT_ID":883,"ALT":9,"NETWORK":"CLIM TT"},"geometry":{"type":"Point","coordinates":[4.356,51.002]}},{"type":"Feature","properties":{"CODE":917,"NAME":"HERNE","STAT_ID":1114,"ALT":43,"NETWORK":"CLIM TT"},"geometry":{"type":"Point","coordinates":[4.004,50.729]}},{"type":"Feature","properties":{"CODE":919,"NAME":"ELINGEN","STAT_ID":1234,"ALT":50,"NETWORK":"CLIM TT"},"geometry":{"type":"Point","coordinates":[4.021,50.787]}},{"type":"Feature","properties":{"CODE":1002,"NAME":"KORBEEK-LO","STAT_ID":479,"ALT":31,"NETWORK":"CLIM TT"},"geometry":{"type":"Point","coordinates":[4.746,50.864]}},{"type":"Feature","properties":{"CODE":1007,"NAME":"BLANMONT","STAT_ID":192,"ALT":125,"NETWORK":"CLIM TT"},"geometry":{"type":"Point","coordinates":[4.646,50.62]}},{"type":"Feature","properties":{"CODE":1009,"NAME":"ERNAGE AWS","STAT_ID":640,"ALT":157,"NETWORK":"CLIM TT"},"geometry":{"type":"Point","coordinates":[4.691,50.583]}},{"type":"Feature","properties":{"CODE":1012,"NAME":"HERENT","STAT_ID":193,"ALT":32,"NETWORK":"CLIM TT"},"geometry":{"type":"Point","coordinates":[4.663,50.904]}},{"type":"Feature","properties":{"CODE":1014,"NAME":"UCCLE VIVAQUA","STAT_ID":470,"ALT":100,"NETWORK":"CLIM TT"},"geometry":{"type":"Point","coordinates":[4.366,50.782]}},{"type":"Feature","properties":{"CODE":1016,"NAME":"SINT-PIETERS-RODE","STAT_ID":606,"ALT":60,"NETWORK":"CLIM TT"},"geometry":{"type":"Point","coordinates":[4.811,50.905]}},{"type":"Feature","properties":{"CODE":1017,"NAME":"LEEFDAAL","STAT_ID":620,"ALT":80,"NETWORK":"CLIM TT"},"geometry":{"type":"Point","coordinates":[4.594,50.843]}},{"type":"Feature","properties":{"CODE":1019,"NAME":"UCCLE-UKKEL AWS","STAT_ID":627,"ALT":101,"NETWORK":"CLIM TT"},"geometry":{"type":"Point","coordinates":[4.358,50.797]}},{"type":"Feature","properties":{"CODE":1020,"NAME":"NETHEN","STAT_ID":636,"ALT":47,"NETWORK":"CLIM TT"},"geometry":{"type":"Point","coordinates":[4.685,50.781]}},{"type":"Feature","properties":{"CODE":1021,"NAME":"UCCLE-UKKEL (ANCIEN FERME)","STAT_ID":771,"ALT":100,"NETWORK":"CLIM TT"},"geometry":{"type":"Point","coordinates":[4.357,50.797]}},{"type":"Feature","properties":{"CODE":1101,"NAME":"BEAUVECHAIN","STAT_ID":200,"ALT":127,"NETWORK":"CLIM TT"},"geometry":{"type":"Point","coordinates":[4.765,50.747]}},{"type":"Feature","properties":{"CODE":1104,"NAME":"GORSEM","STAT_ID":205,"ALT":84,"NETWORK":"CLIM TT"},"geometry":{"type":"Point","coordinates":[5.161,50.772]}},{"type":"Feature","properties":{"CODE":1108,"NAME":"BIERSET","STAT_ID":495,"ALT":178,"NETWORK":"CLIM TT"},"geometry":{"type":"Point","coordinates":[5.46,50.646]}},{"type":"Feature","properties":{"CODE":1110,"NAME":"RANSBERG","STAT_ID":219,"ALT":60,"NETWORK":"CLIM TT"},"geometry":{"type":"Point","coordinates":[5.034,50.864]}},{"type":"Feature","properties":{"CODE":1111,"NAME":"BILZEN","STAT_ID":220,"ALT":63,"NETWORK":"CLIM TT"},"geometry":{"type":"Point","coordinates":[5.508,50.867]}},{"type":"Feature","properties":{"CODE":1112,"NAME":"VEDRIN","STAT_ID":449,"ALT":170,"NETWORK":"CLIM TT"},"geometry":{"type":"Point","coordinates":[4.862,50.5]}},{"type":"Feature","properties":{"CODE":1113,"NAME":"RUTTEN","STAT_ID":494,"ALT":110,"NETWORK":"CLIM TT"},"geometry":{"type":"Point","coordinates":[5.438,50.749]}},{"type":"Feature","properties":{"CODE":1115,"NAME":"DAUSSOULX","STAT_ID":602,"ALT":180,"NETWORK":"CLIM TT"},"geometry":{"type":"Point","coordinates":[4.872,50.515]}},{"type":"Feature","properties":{"CODE":1116,"NAME":"ENGELMANSHOVEN","STAT_ID":890,"ALT":95,"NETWORK":"CLIM TT"},"geometry":{"type":"Point","coordinates":[5.25,50.768]}},{"type":"Feature","properties":{"CODE":1117,"NAME":"MARILLES","STAT_ID":1363,"ALT":95,"NETWORK":"CLIM TT"},"geometry":{"type":"Point","coordinates":[4.944,50.706]}},{"type":"Feature","properties":{"CODE":1201,"NAME":"EZEMAAL","STAT_ID":481,"ALT":47,"NETWORK":"CLIM TT"},"geometry":{"type":"Point","coordinates":[5.001,50.771]}},{"type":"Feature","properties":{"CODE":1206,"NAME":"ANGLEUR","STAT_ID":475,"ALT":65,"NETWORK":"CLIM TT"},"geometry":{"type":"Point","coordinates":[5.583,50.62]}},{"type":"Feature","properties":{"CODE":1207,"NAME":"LIEGE-MONSIN","STAT_ID":235,"ALT":58,"NETWORK":"CLIM TT"},"geometry":{"type":"Point","coordinates":[5.641,50.666]}},{"type":"Feature","properties":{"CODE":1211,"NAME":"BEN-AHIN","STAT_ID":229,"ALT":78,"NETWORK":"CLIM TT"},"geometry":{"type":"Point","coordinates":[5.184,50.516]}},{"type":"Feature","properties":{"CODE":1302,"NAME":"FLORENNES","STAT_ID":272,"ALT":299,"NETWORK":"CLIM TT"},"geometry":{"type":"Point","coordinates":[4.654,50.235]}},{"type":"Feature","properties":{"CODE":1303,"NAME":"DOURBES AWS","STAT_ID":639,"ALT":233,"NETWORK":"CLIM TT"},"geometry":{"type":"Point","coordinates":[4.596,50.096]}},{"type":"Feature","properties":{"CODE":1306,"NAME":"SIVRY","STAT_ID":281,"ALT":256,"NETWORK":"CLIM TT"},"geometry":{"type":"Point","coordinates":[4.23,50.178]}},{"type":"Feature","properties":{"CODE":1307,"NAME":"HASTIERE","STAT_ID":302,"ALT":99,"NETWORK":"CLIM TT"},"geometry":{"type":"Point","coordinates":[4.821,50.2]}},{"type":"Feature","properties":{"CODE":1315,"NAME":"BIOUL","STAT_ID":1328,"ALT":215,"NETWORK":"CLIM TT"},"geometry":{"type":"Point","coordinates":[4.791,50.338]}},{"type":"Feature","properties":{"CODE":1402,"NAME":"STREE","STAT_ID":466,"ALT":250,"NETWORK":"CLIM TT"},"geometry":{"type":"Point","coordinates":[5.316,50.509]}},{"type":"Feature","properties":{"CODE":1404,"NAME":"CRUPET","STAT_ID":482,"ALT":196,"NETWORK":"CLIM TT"},"geometry":{"type":"Point","coordinates":[4.964,50.356]}},{"type":"Feature","properties":{"CODE":1405,"NAME":"ROCHEFORT","STAT_ID":326,"ALT":193,"NETWORK":"CLIM TT"},"geometry":{"type":"Point","coordinates":[5.224,50.176]}},{"type":"Feature","properties":{"CODE":1407,"NAME":"HOUYET","STAT_ID":332,"ALT":118,"NETWORK":"CLIM TT"},"geometry":{"type":"Point","coordinates":[5.008,50.191]}},{"type":"Feature","properties":{"CODE":1412,"NAME":"LOUVEIGNE","STAT_ID":311,"ALT":302,"NETWORK":"CLIM TT"},"geometry":{"type":"Point","coordinates":[5.701,50.518]}},{"type":"Feature","properties":{"CODE":1419,"NAME":"SOREE","STAT_ID":464,"ALT":270,"NETWORK":"CLIM TT"},"geometry":{"type":"Point","coordinates":[5.124,50.399]}},{"type":"Feature","properties":{"CODE":1420,"NAME":"SART-BERNARD","STAT_ID":503,"ALT":260,"NETWORK":"CLIM TT"},"geometry":{"type":"Point","coordinates":[4.954,50.399]}},{"type":"Feature","properties":{"CODE":1423,"NAME":"HUMAIN AWS","STAT_ID":624,"ALT":296,"NETWORK":"CLIM TT"},"geometry":{"type":"Point","coordinates":[5.257,50.194]}},{"type":"Feature","properties":{"CODE":1424,"NAME":"BONCELLES","STAT_ID":1298,"ALT":264,"NETWORK":"CLIM TT"},"geometry":{"type":"Point","coordinates":[5.536,50.567]}},{"type":"Feature","properties":{"CODE":1498,"NAME":"STEMBERT","STAT_ID":456,"ALT":290,"NETWORK":"CLIM TT"},"geometry":{"type":"Point","coordinates":[5.905,50.596]}},{"type":"Feature","properties":{"CODE":1499,"NAME":"S GRAVENVOEREN","STAT_ID":341,"ALT":110,"NETWORK":"CLIM TT"},"geometry":{"type":"Point","coordinates":[5.748,50.75]}},{"type":"Feature","properties":{"CODE":1504,"NAME":"WALHORN","STAT_ID":337,"ALT":220,"NETWORK":"CLIM TT"},"geometry":{"type":"Point","coordinates":[6.035,50.698]}},{"type":"Feature","properties":{"CODE":1507,"NAME":"SPA-LA SAUVENIERE","STAT_ID":348,"ALT":482,"NETWORK":"CLIM TT"},"geometry":{"type":"Point","coordinates":[5.911,50.479]}},{"type":"Feature","properties":{"CODE":1508,"NAME":"STAVELOT","STAT_ID":349,"ALT":320,"NETWORK":"CLIM TT"},"geometry":{"type":"Point","coordinates":[5.936,50.398]}},{"type":"Feature","properties":{"CODE":1512,"NAME":"ELSENBORN","STAT_ID":352,"ALT":570,"NETWORK":"CLIM TT"},"geometry":{"type":"Point","coordinates":[6.182,50.483]}},{"type":"Feature","properties":{"CODE":1600,"NAME":"MONT RIGI AWS","STAT_ID":626,"ALT":673,"NETWORK":"CLIM TT"},"geometry":{"type":"Point","coordinates":[6.075,50.512]}},{"type":"Feature","properties":{"CODE":1602,"NAME":"HOCKAI","STAT_ID":361,"ALT":574,"NETWORK":"CLIM TT"},"geometry":{"type":"Point","coordinates":[5.989,50.484]}},{"type":"Feature","properties":{"CODE":1609,"NAME":"SUGNY","STAT_ID":384,"ALT":375,"NETWORK":"CLIM TT"},"geometry":{"type":"Point","coordinates":[4.9,49.816]}},{"type":"Feature","properties":{"CODE":1612,"NAME":"GEROMONT","STAT_ID":376,"ALT":440,"NETWORK":"CLIM TT"},"geometry":{"type":"Point","coordinates":[6.055,50.41]}},{"type":"Feature","properties":{"CODE":1614,"NAME":"MURRINGEN","STAT_ID":379,"ALT":658,"NETWORK":"CLIM TT"},"geometry":{"type":"Point","coordinates":[6.31,50.408]}},{"type":"Feature","properties":{"CODE":1615,"NAME":"NEIDINGEN","STAT_ID":458,"ALT":420,"NETWORK":"CLIM TT"},"geometry":{"type":"Point","coordinates":[6.148,50.252]}},{"type":"Feature","properties":{"CODE":1618,"NAME":"SOURBRODT","STAT_ID":664,"ALT":575,"NETWORK":"CLIM TT"},"geometry":{"type":"Point","coordinates":[6.126,50.476]}},{"type":"Feature","properties":{"CODE":1620,"NAME":"ELSENBORN","STAT_ID":1329,"ALT":616,"NETWORK":"CLIM TT"},"geometry":{"type":"Point","coordinates":[6.214,50.454]}},{"type":"Feature","properties":{"CODE":1701,"NAME":"HIVES","STAT_ID":389,"ALT":398,"NETWORK":"CLIM TT"},"geometry":{"type":"Point","coordinates":[5.583,50.152]}},{"type":"Feature","properties":{"CODE":1702,"NAME":"GOUVY","STAT_ID":392,"ALT":458,"NETWORK":"CLIM TT"},"geometry":{"type":"Point","coordinates":[5.954,50.191]}},{"type":"Feature","properties":{"CODE":1703,"NAME":"NADRIN","STAT_ID":394,"ALT":405,"NETWORK":"CLIM TT"},"geometry":{"type":"Point","coordinates":[5.681,50.159]}},{"type":"Feature","properties":{"CODE":1705,"NAME":"FORGES","STAT_ID":497,"ALT":318,"NETWORK":"CLIM TT"},"geometry":{"type":"Point","coordinates":[4.34,49.982]}},{"type":"Feature","properties":{"CODE":1707,"NAME":"BIEVRE","STAT_ID":410,"ALT":376,"NETWORK":"CLIM TT"},"geometry":{"type":"Point","coordinates":[5.012,49.94]}},{"type":"Feature","properties":{"CODE":1708,"NAME":"SAINT-HUBERT","STAT_ID":414,"ALT":557,"NETWORK":"CLIM TT"},"geometry":{"type":"Point","coordinates":[5.405,50.04]}},{"type":"Feature","properties":{"CODE":1717,"NAME":"GIVRY","STAT_ID":502,"ALT":400,"NETWORK":"CLIM TT"},"geometry":{"type":"Point","coordinates":[5.642,50.061]}},{"type":"Feature","properties":{"CODE":1718,"NAME":"CHEOUX","STAT_ID":189,"ALT":270,"NETWORK":"CLIM TT"},"geometry":{"type":"Point","coordinates":[5.468,50.216]}},{"type":"Feature","properties":{"CODE":1719,"NAME":"MASSUL","STAT_ID":601,"ALT":470,"NETWORK":"CLIM TT"},"geometry":{"type":"Point","coordinates":[5.504,49.878]}},{"type":"Feature","properties":{"CODE":1721,"NAME":"MOMIGNIES","STAT_ID":619,"ALT":255,"NETWORK":"CLIM TT"},"geometry":{"type":"Point","coordinates":[4.16,50.021]}},{"type":"Feature","properties":{"CODE":1801,"NAME":"LACUISINE","STAT_ID":431,"ALT":298,"NETWORK":"CLIM TT"},"geometry":{"type":"Point","coordinates":[5.324,49.712]}},{"type":"Feature","properties":{"CODE":1804,"NAME":"AUBANGE","STAT_ID":441,"ALT":298,"NETWORK":"CLIM TT"},"geometry":{"type":"Point","coordinates":[5.8,49.572]}},{"type":"Feature","properties":{"CODE":1810,"NAME":"BUZENOL AWS","STAT_ID":653,"ALT":324,"NETWORK":"CLIM TT"},"geometry":{"type":"Point","coordinates":[5.589,49.621]}},{"type":"Feature","properties":{"CODE":1813,"NAME":"FRASSEM","STAT_ID":459,"ALT":388,"NETWORK":"CLIM TT"},"geometry":{"type":"Point","coordinates":[5.826,49.701]}},{"type":"Feature","properties":{"CODE":1814,"NAME":"MEIX-DEVANT-VIRTON","STAT_ID":460,"ALT":252,"NETWORK":"CLIM TT"},"geometry":{"type":"Point","coordinates":[5.48,49.606]}},{"type":"Feature","properties":{"CODE":1815,"NAME":"ROSSIGNOL","STAT_ID":629,"ALT":360,"NETWORK":"CLIM TT"},"geometry":{"type":"Point","coordinates":[5.488,49.724]}}]}